Array [
  Object {
    "business_status": "CLOSED_TEMPORARILY",
    "geometry": Object {
      "location": Object {
        "lat": 42.3407074,
        "lng": -71.082233,
      },
      "viewport": Object {
        "northeast": Object {
          "lat": 42.34209197989272,
          "lng": -71.08080562010728,
        },
        "southwest": Object {
          "lat": 42.33939232010728,
          "lng": -71.08350527989273,
        },
      },
    },
    "icon": "https://maps.gstatic.com/mapfiles/place_api/icons/v1/png_71/bar-71.png",
    "icon_background_color": "#FF9E67",
    "icon_mask_base_uri": "https://maps.gstatic.com/mapfiles/place_api/icons/v2/bar_pinlet",
    "name": "Wally's Cafe Jazz Club",
    "permanently_closed": true,
    "photos": Array [
      Object {
        "height": 1920,
        "html_attributions": Array [
          "<a href=\"https://maps.google.com/maps/contrib/100944906620354778365\">Wally&#39;s Cafe</a>",
        ],
        "photo_reference": "Aap_uEBFWCphx7nALqVb3AGkHTLKOEVtYr97AkxIbY66Ab3OkCzlJHIQ88KN5uIBSB5wQ2jIzJLk86ILeW9BunRJQixq3FrL5ekSjp3pFNYUK8To_J1U3HThl7IF73NmBMjqoK8FduQ5UkOOjA_R2t4scra0j87uQBjID2b1ajPqY1s0XE4_",
        "width": 2560,
      },
    ],
    "place_id": "ChIJaxkk4RZ644kRSVgjV3Tt1bw",
    "plus_code": Object {
      "compound_code": "8WR9+74 Boston, Massachusetts",
      "global_code": "87JC8WR9+74",
    },
    "price_level": 1,
    "rating": 4.5,
    "reference": "ChIJaxkk4RZ644kRSVgjV3Tt1bw",
    "scope": "GOOGLE",
    "types": Array [
      "night_club",
      "bar",
      "point_of_interest",
      "establishment",
    ],
    "user_ratings_total": 813,
    "vicinity": "427 Massachusetts Ave, Boston",
  },
  Object {
    "business_status": "OPERATIONAL",
    "geometry": Object {
      "location": Object {
        "lat": 42.3301441,
        "lng": -71.0838242,
      },
      "viewport": Object {
        "northeast": Object {
          "lat": 42.33157437989272,
          "lng": -71.08259207010728,
        },
        "southwest": Object {
          "lat": 42.32887472010727,
          "lng": -71.08529172989272,
        },
      },
    },
    "icon": "https://maps.gstatic.com/mapfiles/place_api/icons/v1/png_71/bar-71.png",
    "icon_background_color": "#FF9E67",
    "icon_mask_base_uri": "https://maps.gstatic.com/mapfiles/place_api/icons/v2/bar_pinlet",
    "name": "JazzUrbane Cafe",
    "place_id": "ChIJu5Ar4bZ744kREx5rAbCiYFc",
    "plus_code": Object {
      "compound_code": "8WJ8+3F Roxbury, Boston, MA",
      "global_code": "87JC8WJ8+3F",
    },
    "rating": 0,
    "reference": "ChIJu5Ar4bZ744kREx5rAbCiYFc",
    "scope": "GOOGLE",
    "types": Array [
      "night_club",
      "bar",
      "point_of_interest",
      "establishment",
    ],
    "user_ratings_total": 0,
    "vicinity": "2300 Washington St, Roxbury",
  },
  Object {
    "business_status": "CLOSED_TEMPORARILY",
    "geometry": Object {
      "location": Object {
        "lat": 42.372434,
        "lng": -71.1230171,
      },
      "viewport": Object {
        "northeast": Object {
          "lat": 42.37387947989272,
          "lng": -71.12154057010727,
        },
        "southwest": Object {
          "lat": 42.37117982010727,
          "lng": -71.12424022989272,
        },
      },
    },
    "icon": "https://maps.gstatic.com/mapfiles/place_api/icons/v1/png_71/bar-71.png",
    "icon_background_color": "#FF9E67",
    "icon_mask_base_uri": "https://maps.gstatic.com/mapfiles/place_api/icons/v2/bar_pinlet",
    "name": "Regattabar",
    "permanently_closed": true,
    "photos": Array [
      Object {
        "height": 3024,
        "html_attributions": Array [
          "<a href=\"https://maps.google.com/maps/contrib/106891035916075060723\">Valerie Lattell</a>",
        ],
        "photo_reference": "Aap_uECRDCuSPGZWx7PysmdKWjba9UmtVck47VqP5X6mJOH13J-jVd7KpLpOM_SoqHeeg_xQoUKWc0Q1jpKr3y4TmjABwt76l4fbfxWXFiDHkUpsBVtzm4Fjgmp60JnlbudzN1YqhtYUHN679ZfT1HRS9bu2ohyyL_OVOWACEgjLTC5jUK5s",
        "width": 4032,
      },
    ],
    "place_id": "ChIJWRo43Wd344kRu_XX5yrmaus",
    "plus_code": Object {
      "compound_code": "9VCG+XQ Cambridge, Massachusetts",
      "global_code": "87JC9VCG+XQ",
    },
    "price_level": 1,
    "rating": 4.1,
    "reference": "ChIJWRo43Wd344kRu_XX5yrmaus",
    "scope": "GOOGLE",
    "types": Array [
      "night_club",
      "bar",
      "restaurant",
      "food",
      "point_of_interest",
      "establishment",
    ],
    "user_ratings_total": 112,
    "vicinity": "1 Bennett St, Cambridge",
  },
  Object {
    "business_status": "OPERATIONAL",
    "geometry": Object {
      "location": Object {
        "lat": 42.3133032,
        "lng": -71.1167783,
      },
      "viewport": Object {
        "northeast": Object {
          "lat": 42.31475372989272,
          "lng": -71.11556957010727,
        },
        "southwest": Object {
          "lat": 42.31205407010727,
          "lng": -71.1182692298927,
        },
      },
    },
    "icon": "https://maps.gstatic.com/mapfiles/place_api/icons/v1/png_71/generic_business-71.png",
    "icon_background_color": "#13B5C7",
    "icon_mask_base_uri": "https://maps.gstatic.com/mapfiles/place_api/icons/v2/generic_pinlet",
    "name": "SEJQ Jazz Band",
    "opening_hours": Object {
      "open_now": false,
    },
    "place_id": "ChIJ0f1GjK1544kRyY8dtlo6Ypc",
    "plus_code": Object {
      "compound_code": "8V7M+87 Brookline, Massachusetts",
      "global_code": "87JC8V7M+87",
    },
    "rating": 0,
    "reference": "ChIJ0f1GjK1544kRyY8dtlo6Ypc",
    "scope": "GOOGLE",
    "types": Array [
      "point_of_interest",
      "establishment",
    ],
    "user_ratings_total": 0,
    "vicinity": "7 Regent Cir, Brookline",
  },
  Object {
    "business_status": "OPERATIONAL",
    "geometry": Object {
      "location": Object {
        "lat": 42.360262,
        "lng": -71.1181162,
      },
      "viewport": Object {
        "northeast": Object {
          "lat": 42.36142492989271,
          "lng": -71.11668067010729,
        },
        "southwest": Object {
          "lat": 42.35872527010727,
          "lng": -71.11938032989272,
        },
      },
    },
    "icon": "https://maps.gstatic.com/mapfiles/place_api/icons/v1/png_71/restaurant-71.png",
    "icon_background_color": "#FF9E67",
    "icon_mask_base_uri": "https://maps.gstatic.com/mapfiles/place_api/icons/v2/restaurant_pinlet",
    "name": "Scullers Jazz Club",
    "opening_hours": Object {
      "open_now": false,
    },
    "photos": Array [
      Object {
        "height": 3024,
        "html_attributions": Array [
          "<a href=\"https://maps.google.com/maps/contrib/109667782136457211882\">Ufuoma Akpotaire</a>",
        ],
        "photo_reference": "Aap_uEBe_k_sOvypPYOGg-_rEm4ZL6I7Y79Q_qzu8cTXezADd8PHETqH2YxuhSW1b6lKvdCnbU7PhJOzJKuOFvVfXKOUnmAPBSBK_xaupERUgNVEpjmURPdyI4XrWHahqEiUkZ7s7LUh9-iKs244yXELAlpLChC_LQ3YXHJ_ecVCM0YUz5Y",
        "width": 4032,
      },
    ],
    "place_id": "ChIJSTbQAOF544kRx-QSCbfJlcM",
    "plus_code": Object {
      "compound_code": "9V6J+4Q Boston, Massachusetts",
      "global_code": "87JC9V6J+4Q",
    },
    "price_level": 2,
    "rating": 4.3,
    "reference": "ChIJSTbQAOF544kRx-QSCbfJlcM",
    "scope": "GOOGLE",
    "types": Array [
      "restaurant",
      "food",
      "point_of_interest",
      "establishment",
    ],
    "user_ratings_total": 130,
    "vicinity": "400 Soldiers Field Rd, Boston",
  },
  Object {
    "business_status": "OPERATIONAL",
    "geometry": Object {
      "location": Object {
        "lat": 42.3727435,
        "lng": -71.0999539,
      },
      "viewport": Object {
        "northeast": Object {
          "lat": 42.37407372989271,
          "lng": -71.09855877010727,
        },
        "southwest": Object {
          "lat": 42.37137407010727,
          "lng": -71.10125842989272,
        },
      },
    },
    "icon": "https://maps.gstatic.com/mapfiles/place_api/icons/v1/png_71/generic_business-71.png",
    "icon_background_color": "#7B9EB0",
    "icon_mask_base_uri": "https://maps.gstatic.com/mapfiles/place_api/icons/v2/generic_pinlet",
    "name": "Cambridge Jazz Festival",
    "place_id": "ChIJR5L0i0x344kRRqFbjSTpLPk",
    "plus_code": Object {
      "compound_code": "9WF2+32 Cambridge, Massachusetts",
      "global_code": "87JC9WF2+32",
    },
    "rating": 0,
    "reference": "ChIJR5L0i0x344kRRqFbjSTpLPk",
    "scope": "GOOGLE",
    "types": Array [
      "point_of_interest",
      "establishment",
    ],
    "user_ratings_total": 0,
    "vicinity": "165 Amory St, Cambridge",
  }
]
